City_ID,City,Lat,Lng,Max Temp,Humidity,Cloudiness,Wind Speed,Country,Date
0,Shiguai,40.7058,110.2856,47.3,40,29,5.19,CN,2023-10-30 21:14:31
1,Puerto Natales,-51.7236,-72.4875,44.8,49,96,5.26,CL,2023-10-30 21:14:32
2,Maintirano,-18.0667,44.0167,78.08,73,8,13.96,MG,2023-10-30 21:09:32
3,Cascais,38.6979,-9.4215,62.06,80,100,11.99,PT,2023-10-30 21:12:14
4,Cabo San Lucas,22.8909,-109.9124,89.62,68,40,9.22,MX,2023-10-30 21:12:00
5,Lompoc,34.6391,-120.4579,80.78,32,0,10.36,US,2023-10-30 21:14:32
6,Edinburgh Of The Seven Seas,-37.0676,-12.3116,55.29,92,99,27.27,SH,2023-10-30 21:11:36
7,Port-Aux-Francais,-49.35,70.2167,37.45,83,100,36.86,TF,2023-10-30 21:14:06
8,Alice Springs,-23.7,133.8833,63.95,22,71,5.75,AU,2023-10-30 21:14:32
9,Guines,50.8671,1.8703,50.94,91,100,13.65,FR,2023-10-30 21:14:32
10,Blackmans Bay,-43.0167,147.3167,48.33,71,38,3.0,AU,2023-10-30 21:11:18
11,Avarua,-21.2078,-159.775,77.05,69,75,14.97,CK,2023-10-30 21:10:46
12,Adamstown,-25.066,-130.1015,73.15,75,100,9.53,PN,2023-10-30 21:14:05
13,Turpan,42.9333,89.1667,56.8,38,11,1.01,CN,2023-10-30 21:14:33
14,Porto Novo,6.4965,2.6036,82.22,81,100,4.83,BJ,2023-10-30 21:14:33
15,Bethel,41.3712,-73.414,56.01,88,100,5.75,US,2023-10-30 21:14:34
16,Nguigmi,14.2495,13.1092,85.73,12,8,11.5,NE,2023-10-30 21:11:59
17,Ilulissat,69.2167,-51.1,37.42,52,2,21.85,GL,2023-10-30 21:11:51
18,Saudarkrokur,65.7461,-19.6394,29.97,81,47,7.38,IS,2023-10-30 21:10:58
19,Longyearbyen,78.2186,15.6401,33.64,69,75,8.05,SJ,2023-10-30 21:14:35
20,Grytviken,-54.2811,-36.5092,40.37,76,26,9.37,GS,2023-10-30 21:14:35
21,Ribeira Grande,38.5167,-28.7,66.78,77,40,18.99,PT,2023-10-30 21:11:50
22,Ust-Nera,64.5667,143.2,-0.99,100,88,4.29,RU,2023-10-30 21:09:58
23,Waitangi,-43.9535,-176.5597,57.81,83,97,15.99,NZ,2023-10-30 21:14:36
24,Hillvue,-31.1244,150.915,66.11,52,16,2.3,AU,2023-10-30 21:14:37
25,Invercargill,-46.4,168.35,51.03,91,99,3.0,NZ,2023-10-30 21:10:22
26,Weno,7.4515,151.8468,83.35,77,91,13.38,FM,2023-10-30 21:14:37
27,Enewetak,11.3474,162.3373,83.43,79,100,22.08,MH,2023-10-30 21:14:37
28,Nemuro,43.3236,145.575,49.59,80,9,9.95,JP,2023-10-30 21:14:37
29,Tralee,52.2704,-9.7026,47.08,92,9,4.12,IE,2023-10-30 21:14:38
30,Chania,35.5122,24.0156,65.8,94,20,0.0,GR,2023-10-30 21:14:38
31,Ceiba,18.4463,-66.3507,84.11,88,100,7.38,PR,2023-10-30 21:14:38
32,Rongelap,11.1635,166.8941,83.1,79,100,23.53,MH,2023-10-30 21:14:38
33,Anadyr,64.75,177.4833,32.5,100,75,13.42,RU,2023-10-30 21:14:38
34,Sitka,57.0531,-135.33,48.09,81,75,8.05,US,2023-10-30 21:14:21
35,Phetchabun,16.25,101.0833,74.01,95,100,3.51,TH,2023-10-30 21:14:39
36,Ushuaia,-54.8,-68.3,40.66,65,75,21.0,AR,2023-10-30 21:14:39
37,Schlusselfeld,49.7667,10.6333,54.79,95,100,4.97,DE,2023-10-30 21:14:39
38,Kotel'Nikovo,47.6317,43.1461,50.0,69,51,7.96,RU,2023-10-30 21:14:39
39,East London,-33.0153,27.9116,58.89,80,73,12.8,ZA,2023-10-30 21:12:37
40,Kushtia,23.9011,89.1221,73.56,70,40,3.47,BD,2023-10-30 21:14:39
41,Chengde,40.9725,117.9361,48.76,78,8,1.52,CN,2023-10-30 21:12:47
42,Newman,37.3138,-121.0208,74.23,34,7,3.0,US,2023-10-30 21:14:40
43,Howard Springs,-12.497,131.047,78.71,91,76,6.64,AU,2023-10-30 21:14:40
44,Tsiombe,-25.3,45.4833,72.01,83,100,5.79,MG,2023-10-30 21:14:40
45,Port Moresby,-9.4431,147.1797,74.62,94,75,3.44,PG,2023-10-30 21:14:35
46,Niwai,26.35,75.9167,73.72,40,51,2.95,IN,2023-10-30 21:14:40
47,Port Mathurin,-19.6833,63.4167,76.44,81,10,18.14,MU,2023-10-30 21:14:40
48,Rabo De Peixe,37.8,-25.5833,63.91,99,40,6.91,PT,2023-10-30 21:14:41
49,Noshiro,40.2039,140.0242,49.53,85,6,3.85,JP,2023-10-30 21:14:41
50,Mujiayingzi,42.1167,118.7833,46.06,68,65,7.52,CN,2023-10-30 21:14:41
51,Ivankiv,50.9386,29.8943,53.11,70,38,7.18,UA,2023-10-30 21:14:41
52,Sanchursk,56.9413,47.2499,27.18,96,100,11.92,RU,2023-10-30 21:14:41
53,Punta Arenas,-53.15,-70.9167,44.71,57,0,13.8,CL,2023-10-30 21:14:41
54,Moussoro,13.6408,16.4901,88.14,12,3,11.39,TD,2023-10-30 21:14:18
55,Udachny,66.4167,112.4,-7.26,100,98,3.96,RU,2023-10-30 21:14:42
56,Hirara,24.8,125.2833,75.47,73,40,13.8,JP,2023-10-30 21:14:42
57,Sinabang,2.4803,96.3801,77.5,88,100,4.41,ID,2023-10-30 21:14:42
58,Qaqortoq,60.7167,-46.0333,42.35,61,100,21.99,GL,2023-10-30 21:10:37
59,Hasaki,35.7333,140.8333,55.29,62,2,5.59,JP,2023-10-30 21:12:59
60,Nizhniy Odes,63.6445,54.856,18.39,96,94,5.32,RU,2023-10-30 21:14:43
61,Island Harbour,50.724,-1.2758,49.98,94,70,6.53,GB,2023-10-30 21:14:43
62,Bikenibeu Village,1.3673,173.1241,80.56,89,100,4.61,KI,2023-10-30 21:14:43
63,Constantia,44.1833,28.65,57.88,72,0,7.27,RO,2023-10-30 21:14:43
64,San Rafael,-34.6177,-68.3301,61.88,20,2,10.0,AR,2023-10-30 21:14:43
65,Fomboni,-12.28,43.7425,80.19,77,98,3.2,KM,2023-10-30 21:14:43
66,Xiva,41.3783,60.3639,51.78,68,33,9.95,UZ,2023-10-30 21:14:43
67,Gadzhiyevo,69.2551,33.3362,21.4,91,100,17.65,RU,2023-10-30 21:14:43
68,Kendari,-3.945,122.4989,73.6,93,39,2.24,ID,2023-10-30 21:13:53
69,Agat Village,13.3886,144.6585,84.31,87,40,6.91,GU,2023-10-30 21:14:43
70,Vohibinany,-17.35,49.0333,73.53,85,100,2.04,MG,2023-10-30 21:14:44
71,Cornelio Procopio,-23.1811,-50.6467,75.15,80,59,2.75,BR,2023-10-30 21:14:44
72,Hermanus,-34.4187,19.2345,56.89,78,0,16.24,ZA,2023-10-30 21:12:20
73,St. John'S,47.5649,-52.7093,41.27,62,100,8.05,CA,2023-10-30 21:14:44
74,Champerico,14.3,-91.9167,82.85,76,100,12.44,GT,2023-10-30 21:10:45
75,Arraial Do Cabo,-22.9661,-42.0278,78.66,83,0,5.75,BR,2023-10-30 21:14:44
76,Uturoa,-16.7333,-151.4333,79.38,80,11,17.96,PF,2023-10-30 21:14:15
77,Sechura,-5.5569,-80.8222,79.38,58,46,16.6,PE,2023-10-30 21:14:44
78,Yerofey Pavlovich,53.9667,121.9667,16.39,59,100,1.3,RU,2023-10-30 21:14:44
79,Micheweni,-4.9667,39.8333,79.47,84,43,8.21,TZ,2023-10-30 21:14:45
80,Isafjordur,66.0755,-23.124,36.37,75,87,4.83,IS,2023-10-30 21:10:41
81,Pangody,65.85,74.4859,6.71,95,30,5.53,RU,2023-10-30 21:11:19
82,Shaumiani,41.3527,44.7618,60.62,56,57,3.18,GE,2023-10-30 21:14:45
83,Praia Da Vitoria,38.7333,-27.0667,65.75,77,20,8.46,PT,2023-10-30 21:14:45
84,Wailua Homesteads,22.0669,-159.378,81.39,71,20,9.22,US,2023-10-30 21:14:45
85,Dobrinka,52.1653,40.4731,52.83,74,84,17.07,RU,2023-10-30 21:14:45
86,Bosa,40.2993,8.4983,69.89,74,57,18.19,IT,2023-10-30 21:14:45
87,Fort St. John,56.2499,-120.8529,40.89,45,100,10.36,CA,2023-10-30 21:14:46
88,Margaret River,-33.95,115.0667,47.34,90,25,9.15,AU,2023-10-30 21:10:34
89,Horsham,51.064,-0.3272,50.25,100,100,1.14,GB,2023-10-30 21:14:46
90,Chirkey,42.9613,46.9787,59.38,71,0,5.97,RU,2023-10-30 21:14:47
91,West Island,-12.1568,96.8225,78.78,83,100,16.11,CC,2023-10-30 21:10:38
92,Vilyuchinsk,52.9306,158.4028,32.94,78,72,6.85,RU,2023-10-30 21:14:37
93,Larose,29.5724,-90.3818,75.02,72,36,15.43,US,2023-10-30 21:14:47
94,Kavaratti,10.5669,72.642,82.17,70,100,1.9,IN,2023-10-30 21:10:05
95,Utrik,11.2278,169.8474,82.49,81,100,21.32,MH,2023-10-30 21:11:39
96,Fort Mcmurray,56.7268,-111.381,31.51,47,0,9.22,CA,2023-10-30 21:14:48
97,Luneville,48.6,6.5,53.49,90,100,12.53,FR,2023-10-30 21:14:48
98,Vodnyy,63.5046,53.4095,21.42,99,90,2.33,RU,2023-10-30 21:14:48
99,Taybad,34.74,60.7756,66.02,39,95,21.65,IR,2023-10-30 21:14:48
100,Sisimiut,66.9395,-53.6735,28.44,65,100,3.83,GL,2023-10-30 21:11:37
101,Albany,42.6001,-73.9662,47.88,87,100,1.01,US,2023-10-30 21:14:04
102,Awjilah,29.1081,21.2869,72.99,50,98,7.56,LY,2023-10-30 21:14:49
103,Malanje,-9.5402,16.341,66.85,95,92,3.87,AO,2023-10-30 21:14:49
104,Bredasdorp,-34.5322,20.0403,58.33,74,0,20.51,ZA,2023-10-30 21:14:49
105,Pedernales,18.0384,-71.744,82.11,93,98,3.24,DO,2023-10-30 21:14:49
106,Pacocha,-17.5833,-71.3333,68.14,73,75,13.8,PE,2023-10-30 21:14:49
107,Tazovsky,67.4667,78.7,1.35,95,20,4.29,RU,2023-10-30 21:14:49
108,Saipan,15.1355,145.701,83.1,83,40,11.5,MP,2023-10-30 21:12:14
109,Kone,-21.0595,164.8658,72.1,63,95,4.36,NC,2023-10-30 21:14:50
110,Hawaiian Paradise Park,19.5933,-154.9731,81.03,88,75,8.05,US,2023-10-30 21:14:50
111,Papatowai,-46.5619,169.4708,55.09,72,100,4.09,NZ,2023-10-30 21:14:50
112,Port Lincoln,-34.7333,135.8667,54.66,63,89,12.3,AU,2023-10-30 21:14:50
113,Lichuan,30.3,108.85,50.41,85,71,1.41,CN,2023-10-30 21:14:50
114,Kulebaki,55.4133,42.5325,43.0,97,100,11.1,RU,2023-10-30 21:14:50
115,Salanso,12.1833,-4.0833,88.92,24,53,3.38,BF,2023-10-30 21:14:50
116,Lihue,21.9789,-159.3672,81.99,70,20,9.22,US,2023-10-30 21:14:50
117,Vadso,70.0744,29.7487,28.56,86,75,10.36,NO,2023-10-30 21:14:51
118,Semporna,4.4818,118.6112,75.02,96,100,2.28,MY,2023-10-30 21:14:51
119,Jamestown,42.097,-79.2353,44.19,97,100,17.27,US,2023-10-30 21:10:36
120,Juneau,58.3019,-134.4197,40.41,97,100,12.66,US,2023-10-30 21:14:51
121,San Pedro Pochutla,15.7333,-96.4667,89.31,67,58,5.1,MX,2023-10-30 21:12:46
122,Ceerigaabo,10.6162,47.368,63.37,69,19,7.54,SO,2023-10-30 21:14:51
123,Garachico,28.7781,-17.7646,71.71,73,40,1.14,ES,2023-10-30 21:14:51
124,Waingapu,-9.6567,120.2641,79.88,81,38,8.97,ID,2023-10-30 21:14:51
125,Darwin,-12.4611,130.8418,78.78,85,20,3.44,AU,2023-10-30 21:13:47
126,Khovd,48.0056,91.6419,41.2,56,100,6.13,MN,2023-10-30 21:14:52
127,Puerto Baquerizo Moreno,-0.9,-89.6,81.59,69,75,13.8,EC,2023-10-30 21:11:40
128,Natal,-5.795,-35.2094,79.45,69,0,10.36,BR,2023-10-30 21:12:45
129,Rio Grande,-32.035,-52.0986,68.11,92,100,11.86,BR,2023-10-30 21:11:11
130,Iqaluit,63.7506,-68.5145,9.7,72,100,18.99,CA,2023-10-30 21:10:22
131,Whitehorse,60.7161,-135.0538,36.01,93,100,6.91,CA,2023-10-30 21:14:53
132,Tokmok,42.8417,75.3016,62.38,42,95,1.66,KG,2023-10-30 21:14:54
133,La Passe,45.5549,-0.8967,57.97,80,50,24.05,FR,2023-10-30 21:14:54
134,Vorgashor,67.5833,63.95,10.13,88,100,8.25,RU,2023-10-30 21:14:54
135,Bilibino,68.0546,166.4372,13.28,53,57,5.86,RU,2023-10-30 21:14:54
136,Hithadhoo,-0.6,73.0833,80.04,82,9,10.76,MV,2023-10-30 21:14:54
137,Fristad,65.2,16.7167,7.32,99,77,2.39,SE,2023-10-30 21:14:55
138,Dakhla,23.6848,-15.958,69.82,94,3,9.22,EH,2023-10-30 21:14:55
139,Sovetskaya,44.7769,41.1722,54.48,68,2,8.79,RU,2023-10-30 21:14:55
140,New Norfolk,-42.7826,147.0587,49.5,89,63,6.38,AU,2023-10-30 21:11:38
141,Taksimo,56.3444,114.8794,9.48,68,16,3.91,RU,2023-10-30 21:14:55
142,Puerto Ayora,-0.7393,-90.3518,82.36,89,100,5.99,EC,2023-10-30 21:10:30
143,Cole Harbour,44.6724,-63.4751,38.71,94,100,10.36,CA,2023-10-30 21:14:56
144,Kribi,2.95,9.9167,79.7,89,93,7.72,CM,2023-10-30 21:14:56
145,Pirallahi,40.4723,50.333,55.54,75,34,5.61,AZ,2023-10-30 21:14:56
146,Tromso,69.6496,18.957,28.42,93,75,9.22,NO,2023-10-30 21:14:56
147,Iskateley,67.6803,53.1512,20.01,95,99,10.0,RU,2023-10-30 21:14:56
148,Sandnessjoen,66.0217,12.6316,28.51,86,20,4.61,NO,2023-10-30 21:14:50
149,Badger,64.8,-147.5333,34.36,87,100,0.0,US,2023-10-30 21:11:26
150,Flying Fish Cove,-10.4217,105.6791,78.48,88,100,8.05,CX,2023-10-30 21:11:53
151,Tra Vinh,9.9347,106.3453,76.93,92,100,3.74,VN,2023-10-30 21:14:56
152,Bezhetsk,57.7851,36.6965,31.77,97,100,3.13,RU,2023-10-30 21:14:57
153,Gariaband,20.635,82.0614,62.69,82,2,1.68,IN,2023-10-30 21:14:57
154,Lagunas,-5.2269,-75.6753,88.9,54,100,3.36,PE,2023-10-30 21:14:57
155,Haiku-Pauwela,20.9219,-156.3051,84.22,67,20,18.41,US,2023-10-30 21:12:34
156,Solnechnyy,50.7214,136.6319,33.03,69,25,1.61,RU,2023-10-30 21:14:57
157,Coquimbo,-29.9533,-71.3436,62.24,69,96,12.95,CL,2023-10-30 21:10:24
158,Castillos,-34.1667,-53.8333,56.26,93,100,13.6,UY,2023-10-30 21:14:58
159,Petropavlovsk-Kamchatsky,53.0452,158.6483,31.46,82,20,11.01,RU,2023-10-30 21:10:52
160,San Patricio,28.017,-97.5169,49.95,67,100,19.46,US,2023-10-30 21:14:58
161,Tres Arroyos,-38.3739,-60.2798,63.46,15,0,10.98,AR,2023-10-30 21:14:58
162,Thompson,55.7435,-97.8558,25.16,56,100,10.04,CA,2023-10-30 21:10:20
163,Lata,40.1629,-8.3327,54.91,92,100,3.38,PT,2023-10-30 21:11:26
164,Kuching,1.55,110.3333,75.42,100,20,2.3,MY,2023-10-30 21:14:59
165,Waddan,29.1614,16.139,73.94,33,100,7.18,LY,2023-10-30 21:14:59
166,Grants,35.1473,-107.8514,46.63,31,0,3.44,US,2023-10-30 21:12:30
167,Prainha,-1.8,-53.48,92.71,34,3,3.62,BR,2023-10-30 21:15:00
168,La Ronge,55.1001,-105.2842,21.45,53,75,10.36,CA,2023-10-30 21:15:00
169,Gizo,-8.103,156.8419,81.34,80,100,4.99,SB,2023-10-30 21:10:00
170,Lodja,-3.4833,23.4333,70.93,99,97,2.01,CD,2023-10-30 21:15:00
171,Walvis Bay,-22.9575,14.5053,58.6,84,11,7.47,NA,2023-10-30 21:10:35
172,Launceston,-41.45,147.1667,49.64,61,75,9.22,AU,2023-10-30 21:15:00
173,Tongouson,5.0214,120.1328,81.16,76,100,2.91,PH,2023-10-30 21:15:01
174,Hammerfest,70.6634,23.6821,34.25,86,40,8.05,NO,2023-10-30 21:15:01
175,Tarawa,1.419,172.984,80.69,89,100,4.61,KI,2023-10-30 21:15:01
176,Kailua-Kona,19.6406,-155.9956,86.59,66,20,8.05,US,2023-10-30 21:11:34
177,Vila Velha,-20.3297,-40.2925,78.94,81,0,17.27,BR,2023-10-30 21:15:02
178,Ternate,0.8,127.4,81.45,75,41,5.35,ID,2023-10-30 21:15:02
179,Narok,-1.0783,35.8601,58.59,86,14,5.95,KE,2023-10-30 21:15:03
180,Stanley,54.868,-1.6985,44.76,95,75,3.44,GB,2023-10-30 21:12:08
181,Fortuna,40.5982,-124.1573,67.12,57,0,9.22,US,2023-10-30 21:15:04
182,Lorengau,-2.0226,147.2712,78.01,87,100,7.16,PG,2023-10-30 21:15:05
183,Tibati,6.4667,12.6333,68.67,93,85,2.89,CM,2023-10-30 21:15:05
184,Nikolayevsk-On-Amure,53.1406,140.73,28.49,95,15,3.18,RU,2023-10-30 21:15:06
185,Lebu,-37.6167,-73.65,50.76,64,91,15.59,CL,2023-10-30 21:15:06
186,Tual,-5.6667,132.75,81.84,77,100,11.7,ID,2023-10-30 21:15:06
187,Jayapura,-2.5333,140.7,78.19,86,100,3.65,ID,2023-10-30 21:15:07
188,N'Zeto,-7.2312,12.8666,78.03,89,17,10.76,AO,2023-10-30 21:15:07
189,El Calafate,-50.3408,-72.2768,40.71,57,5,3.18,AR,2023-10-30 21:15:08
190,Leksand,60.7339,15.0032,31.66,95,100,12.24,SE,2023-10-30 21:15:09
191,Poltavka,54.3663,71.7632,27.97,97,100,9.98,RU,2023-10-30 21:15:09
192,Mana,5.6592,-53.7767,81.72,83,5,11.12,GF,2023-10-30 21:15:11
193,Tura,25.5198,90.2201,66.61,92,68,4.07,IN,2023-10-30 21:15:11
194,Arauco,-37.2463,-73.3175,51.08,64,100,23.04,CL,2023-10-30 21:15:11
195,Saldanha,-33.0117,17.9442,61.74,57,0,17.85,ZA,2023-10-30 21:15:12
196,Queenstown,-31.8976,26.8753,45.7,82,85,8.59,ZA,2023-10-30 21:15:12
197,Arnedo,42.2167,-2.1,49.5,61,7,8.63,ES,2023-10-30 21:15:12
198,Durg,21.1833,81.2833,66.72,73,18,0.67,IN,2023-10-30 21:15:12
199,Atafu Village,-8.5421,-172.5159,83.61,76,70,13.78,TK,2023-10-30 21:15:12
200,Bozoum,6.3193,16.3799,71.6,93,91,2.64,CF,2023-10-30 21:15:12
201,Macapa,0.0389,-51.0664,89.58,51,40,11.5,BR,2023-10-30 21:15:13
202,Keflavik,64.0049,-22.5624,39.63,70,75,11.5,IS,2023-10-30 21:15:13
203,Nar'Yan-Mar,67.6713,53.087,20.1,95,99,10.0,RU,2023-10-30 21:10:56
204,Uaua,-9.8414,-39.4817,90.12,20,95,3.15,BR,2023-10-30 21:15:13
205,Kapa'A,22.0752,-159.319,82.72,71,20,9.22,US,2023-10-30 21:11:12
206,Tiksi,71.6872,128.8694,-4.83,100,58,3.71,RU,2023-10-30 21:15:14
207,Kitami,43.8031,143.8908,38.97,73,21,5.06,JP,2023-10-30 21:12:09
208,Rampur,28.8167,79.0333,67.86,55,70,3.24,IN,2023-10-30 21:15:14
209,Al Bawiti,28.3492,28.8659,72.48,72,11,9.91,EG,2023-10-30 21:10:59
210,Srivardhan,18.0333,73.0167,76.46,59,44,3.94,IN,2023-10-30 21:15:14
211,Nuuk,64.1835,-51.7216,47.01,31,75,17.27,GL,2023-10-30 21:14:02
212,Targu Secuiesc,46.0,26.1333,48.9,64,71,3.42,RO,2023-10-30 21:15:15
213,Juuka,63.2333,29.25,23.36,89,92,3.69,FI,2023-10-30 21:15:15
214,Nazyvayevsk,55.5698,71.3529,23.83,94,99,12.82,RU,2023-10-30 21:15:15
215,Antsiranana,-12.2787,49.2917,76.48,82,98,13.42,MG,2023-10-30 21:15:15
216,Callao,-12.0667,-77.15,71.89,68,0,18.41,PE,2023-10-30 21:13:26
217,Bindura,-17.3019,31.3306,66.49,67,59,6.96,ZW,2023-10-30 21:15:16
218,Masuguru,-11.3667,38.4167,80.47,58,72,6.26,TZ,2023-10-30 21:15:16
219,Bageshwar,29.85,79.7667,57.0,66,86,2.77,IN,2023-10-30 21:15:16
220,Severo-Yeniseyskiy,60.3725,93.0408,-0.49,99,80,2.37,RU,2023-10-30 21:15:16
221,Acarau,-2.8856,-40.12,79.2,76,82,16.84,BR,2023-10-30 21:10:50
222,Tazacorte,28.629,-17.9293,74.37,92,40,1.14,ES,2023-10-30 21:15:16
223,Nema,57.5067,50.5011,25.92,96,100,5.64,RU,2023-10-30 21:12:03
224,Tobruk,32.0836,23.9764,71.04,77,7,4.99,LY,2023-10-30 21:15:17
225,Balkashino,52.5167,68.7667,34.11,98,100,10.18,KZ,2023-10-30 21:15:17
226,Olonkinbyen,70.9221,-8.7187,34.14,62,100,11.86,SJ,2023-10-30 21:15:18
227,College,64.8569,-147.8028,34.45,86,100,0.0,US,2023-10-30 21:15:18
228,Codrington,-38.2667,141.9667,52.41,58,55,14.56,AU,2023-10-30 21:11:54
229,Polyarnyy,69.1989,33.4478,21.94,90,100,16.53,RU,2023-10-30 21:15:18
230,Kegeyli Shahar,42.7767,59.6078,46.49,74,0,13.22,UZ,2023-10-30 21:15:18
231,Magadan,59.5667,150.8,23.34,76,12,6.82,RU,2023-10-30 21:12:37
232,Taroa,8.7058,171.2275,83.16,79,99,19.53,MH,2023-10-30 21:10:30
233,Afaahiti,-17.75,-149.2833,82.27,84,27,20.4,PF,2023-10-30 21:14:46
234,Kingston,17.997,-76.7936,87.24,78,99,8.99,JM,2023-10-30 21:11:19
235,Happy Valley-Goose Bay,53.3168,-60.3315,32.31,40,40,14.97,CA,2023-10-30 21:15:19
236,Aginskoye,51.1,114.53,18.73,98,97,1.99,RU,2023-10-30 21:15:19
237,Goure,13.9835,10.2704,85.64,15,13,9.19,NE,2023-10-30 21:15:19
238,Mount Gambier,-37.8333,140.7667,51.64,56,79,9.93,AU,2023-10-30 21:15:20
239,Guane,22.2025,-84.0875,82.08,72,84,5.44,CU,2023-10-30 21:15:20
240,San Fernando De Monte Cristi,19.8667,-71.65,84.92,73,90,11.63,DO,2023-10-30 21:15:20
241,Chonchi,-42.6128,-73.8092,50.13,87,95,2.55,CL,2023-10-30 21:15:20
242,Kangding,30.0513,101.9603,45.19,93,72,4.0,CN,2023-10-30 21:15:21
243,Grand Baie,-20.0182,57.5802,77.47,73,9,1.99,MU,2023-10-30 21:15:21
244,Bairnsdale,-37.8333,147.6167,51.06,77,18,1.99,AU,2023-10-30 21:15:21
245,Guaruja,-23.9931,-46.2564,79.9,26,100,1.99,BR,2023-10-30 21:15:21
246,Kodiak,57.79,-152.4072,45.91,93,100,16.11,US,2023-10-30 21:15:22
247,Mejit,10.2753,170.8646,82.74,81,99,20.92,MH,2023-10-30 21:10:48
248,Nishinoomote,30.7333,131.0,69.44,58,0,1.61,JP,2023-10-30 21:15:22
249,Namikupa,-10.8333,39.6,70.68,96,96,4.0,TZ,2023-10-30 21:15:22
250,Nowshahr,36.649,51.496,64.35,88,75,0.0,IR,2023-10-30 21:15:22
251,Beloyarskiy,63.7119,66.6722,10.0,97,99,4.0,RU,2023-10-30 21:15:23
252,Hiriyur,13.9456,76.6192,72.73,80,100,4.16,IN,2023-10-30 21:15:23
253,Vernon,50.2581,-119.2691,44.76,52,30,1.14,CA,2023-10-30 21:15:23
254,Lufilufi,-13.8745,-171.5986,85.78,82,90,22.24,WS,2023-10-30 21:15:23
255,Marka,1.7159,44.7717,79.68,78,31,6.71,SO,2023-10-30 21:15:23
256,Surgut,61.25,73.4167,15.91,84,0,8.99,RU,2023-10-30 21:12:11
257,Nuku'Alofa,-21.1333,-175.2,80.94,78,20,17.27,TO,2023-10-30 21:15:24
258,Tsimlyansk,47.6461,42.1019,51.22,68,86,6.98,RU,2023-10-30 21:15:24
259,Egilsstadir,65.2653,-14.3948,22.91,86,0,5.75,IS,2023-10-30 21:15:24
260,Gao,16.6362,1.637,84.56,9,0,11.63,ML,2023-10-30 21:15:24
261,Iwanai,42.9744,140.5089,42.69,92,63,4.72,JP,2023-10-30 21:15:25
262,Muleba,-1.8397,31.6544,71.69,64,74,6.51,TZ,2023-10-30 21:15:25
263,Rio Gallegos,-51.6226,-69.2181,44.65,36,40,11.5,AR,2023-10-30 21:15:25
264,Fale Old Settlement,-9.3852,-171.2468,83.41,76,32,15.21,TK,2023-10-30 21:13:42
265,Grand-Lahou,5.1367,-5.0242,77.74,91,1,3.38,CI,2023-10-30 21:15:25
266,Springbok,-29.6643,17.8865,65.82,15,0,10.63,ZA,2023-10-30 21:15:25
267,Taltal,-25.4,-70.4833,62.06,77,39,5.64,CL,2023-10-30 21:15:26
268,Funafuti,-8.5243,179.1942,87.8,89,40,5.75,TV,2023-10-30 21:15:26
269,Santana,-0.0583,-51.1817,89.78,51,40,11.5,BR,2023-10-30 21:14:18
270,Nova Sintra,14.8667,-24.7167,74.32,64,57,1.88,CV,2023-10-30 21:15:26
271,Tucuma,-0.1833,-50.05,84.31,66,65,12.62,BR,2023-10-30 21:15:26
272,Hami,42.8,93.45,50.85,49,14,2.71,CN,2023-10-30 21:15:27
273,Tobelo,1.7284,128.0095,79.56,80,86,1.39,ID,2023-10-30 21:15:27
274,Alaghsas,17.0187,8.0168,83.73,11,98,11.86,NE,2023-10-30 21:15:27
275,Gurupi,-11.7292,-49.0686,97.0,19,4,6.53,BR,2023-10-30 21:12:31
276,Xilin Hot,43.9667,116.0333,42.78,55,85,10.16,CN,2023-10-30 21:15:27
277,Soio,-6.1349,12.3689,78.46,87,27,9.04,AO,2023-10-30 21:15:27
278,Tangshan,39.6333,118.1833,51.87,84,16,2.89,CN,2023-10-30 21:11:31
279,Mar Del Plata,-38.0023,-57.5575,57.22,54,0,14.97,AR,2023-10-30 21:12:24
280,Chongwe,-15.3292,28.682,70.54,67,85,11.88,ZM,2023-10-30 21:15:28
281,Ohara,35.25,140.3833,61.47,70,0,4.68,JP,2023-10-30 21:15:28
282,Pimentel,-6.8367,-79.9342,73.69,68,0,25.32,PE,2023-10-30 21:11:09
283,Valparaiso,-33.0393,-71.6273,64.04,65,0,13.8,CL,2023-10-30 21:10:35
284,Kristiansund,63.1115,7.732,29.05,80,0,3.44,NO,2023-10-30 21:15:28
285,Peymeinade,43.6333,6.8833,61.27,93,75,0.0,FR,2023-10-30 21:15:28
286,Yellowknife,62.456,-114.3525,32.41,93,75,9.22,CA,2023-10-30 21:12:22
287,Hotan,37.0997,79.9269,57.15,19,0,5.46,CN,2023-10-30 21:15:29
288,Chateaubriant,47.7167,-1.3833,51.51,94,94,9.62,FR,2023-10-30 21:15:29
289,Cooper'S Town,26.8667,-77.5167,78.8,85,16,18.72,BS,2023-10-30 21:15:29
290,Limulunga,-15.0969,23.1376,75.13,59,100,4.74,ZM,2023-10-30 21:15:29
291,Pogradec,40.9025,20.6525,44.6,56,6,3.2,AL,2023-10-30 21:15:29
292,Smirnovo,54.5125,69.4222,30.04,98,100,8.41,KZ,2023-10-30 21:15:29
293,Broome,42.2506,-75.833,44.98,93,100,13.8,US,2023-10-30 21:11:44
294,Namibe,-15.1961,12.1522,65.86,81,0,4.18,AO,2023-10-30 21:15:30
295,Riberalta,-10.9833,-66.1,91.6,62,75,11.5,BO,2023-10-30 21:15:30
296,Lakhipur,26.0299,90.3041,70.9,82,54,4.88,IN,2023-10-30 21:15:30
297,Labis,2.385,103.021,74.64,95,100,1.88,MY,2023-10-30 21:15:30
298,Mountain Home,43.133,-115.6912,47.14,37,0,5.75,US,2023-10-30 21:11:05
299,Nasir,15.5894,32.5634,91.69,32,92,11.32,SD,2023-10-30 21:15:30
300,Sarangani,5.4033,125.4636,82.31,71,97,1.39,PH,2023-10-30 21:15:30
301,Jerez De Garcia Salinas,22.65,-103.0,79.39,38,86,9.01,MX,2023-10-30 21:15:31
302,Howrah,22.5892,88.3103,77.0,83,48,0.0,IN,2023-10-30 21:15:31
303,Ternopil,49.5559,25.6056,55.35,59,98,7.56,UA,2023-10-30 21:15:31
304,Huarmey,-10.0681,-78.1522,66.67,87,57,15.12,PE,2023-10-30 21:15:31
305,Copiapo,-27.3667,-70.3333,64.09,20,95,8.55,CL,2023-10-30 21:15:31
306,Ancud,-41.8697,-73.8203,47.28,66,6,14.7,CL,2023-10-30 21:15:31
307,Ayaviri,-14.8864,-70.5889,65.8,19,68,10.76,PE,2023-10-30 21:15:31
308,Ghat,24.9647,10.1728,77.63,18,0,4.12,LY,2023-10-30 21:15:32
309,Horta,38.5333,-28.6333,66.02,81,40,18.99,PT,2023-10-30 21:11:20
310,Geraldton,-28.7667,114.6,54.01,76,4,10.36,AU,2023-10-30 21:14:17
311,Embi,48.8264,58.1442,39.18,73,100,16.69,KZ,2023-10-30 21:15:32
312,Bastia,42.6667,9.3333,67.33,72,20,18.99,FR,2023-10-30 21:15:32
313,Bambanglipuro,-7.95,110.2833,74.91,92,14,2.59,ID,2023-10-30 21:15:32
314,Hamilton,39.1834,-84.5333,46.06,83,100,11.5,US,2023-10-30 21:15:33
315,Ulanhot,46.0833,122.0833,32.09,52,89,7.54,CN,2023-10-30 21:15:33
316,Plymouth,41.8334,-70.8328,55.71,96,100,5.75,US,2023-10-30 21:15:27
317,Zaozersk,69.4005,32.4476,20.95,94,100,13.35,RU,2023-10-30 21:15:33
318,Monrovia,6.3005,-10.7969,78.57,79,69,10.27,LR,2023-10-30 21:15:33
319,Nakhon Thai,17.1006,100.8374,73.04,98,100,1.63,TH,2023-10-30 21:15:34
320,Celestun,20.8667,-90.4,79.83,75,4,13.42,MX,2023-10-30 21:15:34
321,Hovd,48.0056,91.6419,36.99,62,100,0.94,MN,2023-10-30 21:15:34
322,Akureyri,65.6835,-18.0878,21.13,86,0,0.0,IS,2023-10-30 21:15:34
323,Luwuk,-0.9516,122.7875,77.29,78,98,5.44,ID,2023-10-30 21:13:51
324,Kalach-Na-Donu,48.691,43.5264,47.43,78,93,7.61,RU,2023-10-30 21:15:35
325,Pisco,-13.7,-76.2167,73.45,64,48,23.02,PE,2023-10-30 21:10:51
326,Qusmuryn,52.4503,64.6311,34.03,82,100,14.18,KZ,2023-10-30 21:15:35
327,Vilyuysk,63.7553,121.6247,5.0,96,100,4.0,RU,2023-10-30 21:15:36
328,Forster,-32.1667,152.5167,70.29,66,69,6.82,AU,2023-10-30 21:15:36
329,Port Elizabeth,-33.918,25.5701,60.31,85,75,14.97,ZA,2023-10-30 21:15:36
330,Talnakh,69.4865,88.3972,1.2,95,100,5.41,RU,2023-10-30 21:14:08
331,Nganjuk,-7.6051,111.9035,77.25,76,57,1.36,ID,2023-10-30 21:15:36
332,Puerto Aysen,-45.4,-72.7,48.76,85,10,0.36,CL,2023-10-30 21:11:57
333,Hadibu,12.65,54.0333,79.72,75,95,11.48,YE,2023-10-30 21:15:36
334,Freetown,8.484,-13.2299,80.31,83,40,8.05,SL,2023-10-30 21:15:10
335,Kinablangan,7.6947,126.5503,77.18,84,84,3.67,PH,2023-10-30 21:10:55
336,Wonsan,39.1528,127.4436,54.79,81,0,6.85,KP,2023-10-30 21:15:37
337,Mao,39.8885,4.2658,68.56,77,20,18.41,ES,2023-10-30 21:15:37
338,Kindia,10.0569,-12.8658,73.17,85,84,4.21,GN,2023-10-30 21:15:37
339,Prince Rupert,54.3161,-130.3201,44.69,72,0,2.3,CA,2023-10-30 21:15:37
340,Birobidzhan,48.8,132.95,35.82,69,98,3.49,RU,2023-10-30 21:15:37
341,Ust'-Dzheguta,44.0834,41.9763,54.03,61,0,5.48,RU,2023-10-30 21:15:37
342,El Granada,37.5027,-122.4694,76.8,29,0,8.05,US,2023-10-30 21:15:37
343,Coahuayana De Hidalgo,18.7,-103.6583,87.48,63,33,6.58,MX,2023-10-30 21:15:38
344,Santo Antonio,-6.3106,-35.4789,76.57,70,12,15.1,BR,2023-10-30 21:15:38
345,Kangaba,11.9333,-8.4167,83.7,43,90,3.2,ML,2023-10-30 21:15:38
346,Kencong,-8.2833,113.3667,74.05,90,29,1.54,ID,2023-10-30 21:15:38
347,Dickinson,29.4608,-95.0513,52.16,84,100,18.41,US,2023-10-30 21:11:37
348,Bikapur,26.6,82.1333,70.47,55,42,1.9,IN,2023-10-30 21:15:38
349,Walker,30.7335,-95.5669,45.34,100,100,13.8,US,2023-10-30 21:15:38
350,Villa Regina,-39.1,-67.0667,66.97,15,95,3.0,AR,2023-10-30 21:15:38
351,Bochum,51.4833,7.2167,56.25,88,100,1.01,DE,2023-10-30 21:15:39
352,Vetovo,43.7,26.2667,60.58,57,0,8.21,BG,2023-10-30 21:15:39
353,Meadow Lake,34.8014,-106.5436,51.62,36,0,3.78,US,2023-10-30 21:15:39
354,Mach,29.8637,67.3298,65.93,50,5,1.79,PK,2023-10-30 21:15:39
355,Antalaha,-14.9003,50.2788,72.54,91,93,4.29,MG,2023-10-30 21:15:39
356,Mount Pearl,47.5166,-52.7813,40.44,64,100,1.01,CA,2023-10-30 21:10:52
357,Kitimat,54.0524,-128.6534,37.78,42,1,0.45,CA,2023-10-30 21:15:39
358,Kavieng,-2.5744,150.7967,78.24,84,100,5.68,PG,2023-10-30 21:15:40
359,Coruripe,-10.1256,-36.1756,73.0,76,100,5.79,BR,2023-10-30 21:15:40
360,Iba,15.3667,120.0333,74.16,77,100,5.53,PH,2023-10-30 21:15:40
361,Mabaruma,8.2,-59.7833,77.27,90,90,2.46,GY,2023-10-30 21:15:40
362,Zliten,32.4674,14.5687,74.89,62,38,12.77,LY,2023-10-30 21:15:40
363,Banda Aceh,5.5577,95.3222,78.58,81,100,3.13,ID,2023-10-30 21:11:39
364,Aasiaat,68.7098,-52.8699,25.79,77,6,18.9,GL,2023-10-30 21:11:24
365,Sokoni,-6.4333,39.55,79.79,80,100,15.28,TZ,2023-10-30 21:11:28
366,Yanam,16.7333,82.2167,74.84,77,39,4.03,IN,2023-10-30 21:15:40
367,Susuman,62.7833,148.1667,1.98,97,86,1.01,RU,2023-10-30 21:15:40
368,Sonari,27.0667,95.0333,67.01,82,40,2.08,IN,2023-10-30 21:15:40
369,Palmer,42.1584,-72.3287,51.24,85,100,3.44,US,2023-10-30 21:15:41
370,Aleg,17.0481,-13.9209,93.74,18,39,8.52,MR,2023-10-30 21:15:41
371,Machakos,-1.5167,37.2667,66.15,97,45,4.27,KE,2023-10-30 21:15:41
372,Mount Isa,-20.7333,139.5,73.17,68,65,0.0,AU,2023-10-30 21:15:41
373,Nadi,-17.8,177.4167,84.2,61,20,6.91,FJ,2023-10-30 21:15:28
374,Matthew Town,20.95,-73.6667,84.47,70,48,1.28,BS,2023-10-30 21:15:42
375,San Antonio,29.4241,-98.4936,44.62,77,100,16.11,US,2023-10-30 21:14:37
376,Janoshalma,46.2986,19.3258,64.2,40,73,13.22,HU,2023-10-30 21:15:42
377,Xuchang,34.0167,113.8167,63.86,58,0,9.26,CN,2023-10-30 21:12:59
378,Tofol,5.3248,163.0078,83.46,73,100,10.56,FM,2023-10-30 21:15:42
379,Kolonia,50.9333,6.95,55.96,91,20,9.22,DE,2023-10-30 21:15:42
380,Kerikeri,-35.2268,173.9474,63.91,95,98,5.01,NZ,2023-10-30 21:11:09
381,Georgetown,5.4112,100.3354,81.01,91,20,5.75,MY,2023-10-30 21:15:31
382,Greymouth,-42.4667,171.2,54.27,79,100,10.04,NZ,2023-10-30 21:11:35
383,Quiberon,47.4841,-3.1196,59.07,84,69,7.0,FR,2023-10-30 21:15:43
384,Altai,46.3722,96.2583,32.97,71,34,11.12,MN,2023-10-30 21:15:43
385,Kisangani,0.5167,25.2,73.24,85,17,3.31,CD,2023-10-30 21:15:43
386,Ocean Shores,46.9737,-124.1563,62.46,65,0,9.22,US,2023-10-30 21:15:43
387,Verkhovazh'Ye,60.7472,42.0465,26.15,90,100,2.68,RU,2023-10-30 21:15:43
388,Papao,-17.75,-149.55,85.68,80,2,19.1,PF,2023-10-30 21:13:14
389,Kavalerovo,44.2661,135.0572,48.54,66,83,1.99,RU,2023-10-30 21:15:43
390,Otjiwarongo,-20.4637,16.6477,65.84,22,65,7.43,NA,2023-10-30 21:15:43
391,Minas De Marcona,-15.2119,-75.1103,65.7,65,9,19.08,PE,2023-10-30 21:10:50
392,Nchelenge,-9.3451,28.734,75.79,70,100,0.47,ZM,2023-10-30 21:10:45
393,Pazaryolu,40.4208,40.771,53.64,65,96,3.44,TR,2023-10-30 21:15:44
394,Whangarei,-35.7317,174.3239,61.2,100,100,6.33,NZ,2023-10-30 21:15:44
395,Noosa Heads,-26.3833,153.15,72.34,75,6,12.73,AU,2023-10-30 21:14:08
396,Dudinka,69.4058,86.1778,1.67,97,100,1.99,RU,2023-10-30 21:11:57
397,Bahir Dar,11.5936,37.3908,60.64,92,100,3.31,ET,2023-10-30 21:15:44
398,Bilqas,31.2145,31.358,73.96,74,60,6.76,EG,2023-10-30 21:15:44
399,Guerrero Negro,27.9769,-114.0611,79.61,32,0,9.78,MX,2023-10-30 21:15:45
400,Tamiyah,29.4764,30.9612,75.9,62,45,9.86,EG,2023-10-30 21:15:45
401,Grand-Popo,6.2804,1.8225,82.72,78,86,5.21,BJ,2023-10-30 21:15:45
402,Bidart,43.4376,-1.5913,58.68,82,100,5.75,FR,2023-10-30 21:15:45
403,Selfoss,63.9331,-20.9971,33.04,80,17,6.38,IS,2023-10-30 21:15:45
404,Mwene-Ditu,-7.0,23.45,67.86,97,100,2.77,CD,2023-10-30 21:15:46
405,Manastirea,44.2167,26.9,65.01,53,2,6.2,RO,2023-10-30 21:15:46
406,Miami,25.7743,-80.1937,87.01,73,40,10.36,US,2023-10-30 21:12:00
407,Bel Ombre,-4.6167,55.4167,78.64,83,20,3.44,SC,2023-10-30 21:15:46
408,Zaragoza,41.6561,-0.8773,59.45,49,0,19.57,ES,2023-10-30 21:15:46
409,Chifeng,42.2683,118.9636,47.41,65,91,6.31,CN,2023-10-30 21:15:46
410,Nizhnesortymskiy,62.4397,71.7603,12.7,95,93,5.88,RU,2023-10-30 21:15:47
411,Ola,59.5833,151.2833,25.74,67,8,6.11,RU,2023-10-30 21:13:06
412,Columbia Falls,48.3725,-114.1815,38.14,64,0,4.61,US,2023-10-30 21:15:47
413,Saint-Philippe,-21.3585,55.7679,74.79,83,18,9.17,RE,2023-10-30 21:15:47
414,Luderitz,-26.6481,15.1594,65.52,45,0,10.33,NA,2023-10-30 21:15:47
415,Argostolion,38.1811,20.489,68.74,58,0,2.59,GR,2023-10-30 21:15:47
416,Benguela,-12.5763,13.4055,76.12,80,14,2.48,AO,2023-10-30 21:15:47
417,Dunedin,-45.8742,170.5036,58.66,69,98,4.59,NZ,2023-10-30 21:13:34
418,Khromtau,50.2503,58.4347,33.82,73,100,21.0,KZ,2023-10-30 21:15:48
419,Okhotsk,59.3833,143.3,22.86,87,100,5.75,RU,2023-10-30 21:15:48
420,Luimneach,52.6647,-8.6231,48.15,95,22,2.53,IE,2023-10-30 21:11:03
421,Sittwe,20.15,92.9,76.69,84,3,5.48,MM,2023-10-30 21:15:48
422,South Hedland,-20.4089,118.5983,75.13,88,41,4.61,AU,2023-10-30 21:11:16
423,Skanor Med Falsterbo,55.4,12.85,51.78,91,82,15.17,SE,2023-10-30 21:15:48
424,Port Saint John'S,-31.6229,29.5448,56.55,86,100,2.37,ZA,2023-10-30 21:11:06
425,Karwar,14.8,74.1333,78.3,84,99,4.12,IN,2023-10-30 21:15:49
426,Novaya Igirma,57.1334,103.9112,15.24,75,89,3.04,RU,2023-10-30 21:15:49
427,Amos,48.5669,-78.1162,31.68,55,100,6.71,CA,2023-10-30 21:15:02
428,Las Tablas,7.7667,-80.2833,82.96,77,99,11.99,PA,2023-10-30 21:12:25
429,Christchurch,-43.5333,172.6333,61.54,93,100,16.11,NZ,2023-10-30 21:11:04
430,Tamanrasset,22.785,5.5228,76.91,16,40,4.61,DZ,2023-10-30 21:15:49
431,Puerto Carreno,6.189,-67.4859,92.25,52,65,2.68,CO,2023-10-30 21:11:36
432,Touros,-5.1989,-35.4608,79.18,76,23,21.65,BR,2023-10-30 21:11:23
433,Santa Terezinha,-29.9002,-50.0904,67.91,98,100,8.99,BR,2023-10-30 21:15:49
434,Aktau,43.65,51.2,46.98,72,0,1.61,KZ,2023-10-30 21:15:49
435,Tumbi,-5.0667,32.7333,81.5,34,99,10.74,TZ,2023-10-30 21:15:50
436,Tomatlan,19.9333,-105.25,85.71,70,43,10.07,MX,2023-10-30 21:15:50
437,Kozhevnikovo,56.2589,83.9714,21.25,79,100,10.25,RU,2023-10-30 21:15:50
438,Palangkaraya,-2.2,113.8333,75.67,95,63,1.19,ID,2023-10-30 21:15:50
439,Mannarakkat,10.9833,76.4667,76.87,95,100,2.84,IN,2023-10-30 21:15:50
440,Bandar,2.05,99.75,73.15,96,100,1.72,ID,2023-10-30 21:15:50
441,Novo Aripuana,-5.1206,-60.3797,88.29,54,93,4.63,BR,2023-10-30 21:15:51
442,Nantucket,41.2835,-70.0995,60.15,98,89,13.35,US,2023-10-30 21:15:51
443,Remire-Montjoly,4.9167,-52.2667,86.04,74,100,10.36,GF,2023-10-30 21:15:51
444,Lazaro Cardenas,17.9583,-102.2,84.06,76,18,7.05,MX,2023-10-30 21:15:51
445,North Bend,43.4065,-124.2243,66.11,42,0,0.0,US,2023-10-30 21:13:25
446,Sydney,-33.8679,151.2073,79.34,30,94,3.0,AU,2023-10-30 21:10:55
447,Klyuchi,52.2667,79.1667,43.93,92,100,10.71,RU,2023-10-30 21:15:51
448,Patterson,37.4716,-121.1297,73.06,33,7,4.79,US,2023-10-30 21:15:51
449,Luau,-10.7073,22.2247,65.95,96,100,2.24,AO,2023-10-30 21:15:52
450,Yorkton,51.2167,-102.4677,21.04,53,40,21.85,CA,2023-10-30 21:15:52
451,Vila Franca Do Campo,37.7167,-25.4333,64.81,99,44,7.2,PT,2023-10-30 21:15:52
452,Imperial,33.0334,-115.4175,79.02,7,9,12.33,US,2023-10-30 21:15:52
453,Chibougamau,49.9168,-74.3659,26.22,86,100,8.05,CA,2023-10-30 21:15:47
454,Semnan,35.5729,53.3971,60.04,60,94,7.65,IR,2023-10-30 21:15:52
455,Marsabit,2.3284,37.9899,63.46,90,92,5.73,KE,2023-10-30 21:15:52
456,Dezhou,37.4486,116.2925,60.1,44,10,7.56,CN,2023-10-30 21:15:52
457,Puerto Rosario,-24.45,-57.0833,80.19,69,22,10.4,PY,2023-10-30 21:15:53
458,Vorkuta,67.5,64.0,10.85,87,100,8.08,RU,2023-10-30 21:11:14
459,Peniche,39.3558,-9.3811,59.11,89,100,4.47,PT,2023-10-30 21:15:53
460,Fort Bragg,35.139,-79.006,84.81,46,0,14.97,US,2023-10-30 21:15:45
461,Macon,39.8667,-88.9668,40.87,60,75,12.66,US,2023-10-30 21:12:28
462,Ta`U,-14.2336,-169.5144,80.44,82,59,26.96,AS,2023-10-30 21:15:53
463,Mata-Utu,-13.2816,-176.1745,82.65,76,36,11.88,WF,2023-10-30 21:14:58
464,Libreville,0.3925,9.4537,79.12,89,100,8.81,GA,2023-10-30 21:15:54
465,Nouadhibou,20.931,-17.0347,71.58,88,3,14.97,MR,2023-10-30 21:15:54
466,Shangzhi,45.2167,127.9667,38.89,37,100,4.32,CN,2023-10-30 21:15:54
467,Guarapari,-20.6667,-40.4975,78.89,84,93,14.7,BR,2023-10-30 21:15:54
468,Kenai,60.5544,-151.2583,42.1,80,0,9.22,US,2023-10-30 21:15:55
469,Sur,22.5667,59.5289,78.78,67,8,7.23,OM,2023-10-30 21:15:55
470,Ponta Delgada,37.7333,-25.6667,65.12,72,40,6.91,PT,2023-10-30 21:15:55
471,Mananjary,-21.2167,48.3333,76.1,83,80,10.22,MG,2023-10-30 21:14:27
472,Nogliki,51.8333,143.1667,36.34,71,75,3.0,RU,2023-10-30 21:15:55
473,Praia,14.9215,-23.5087,81.14,69,75,9.22,CV,2023-10-30 21:15:55
474,Sinaloa De Leyva,25.8333,-108.2333,88.16,37,0,5.48,MX,2023-10-30 21:15:56
475,Podgornoye,51.735,39.1496,57.42,67,0,13.42,RU,2023-10-30 21:15:56
476,Singkil,-7.9855,111.4161,75.02,88,58,3.62,ID,2023-10-30 21:15:56
477,Yaren,-0.5472,166.916,83.21,69,100,5.82,NR,2023-10-30 21:15:56
478,Brainerd,46.358,-94.2008,34.05,72,100,9.22,US,2023-10-30 21:13:59
479,Pandan,14.0453,124.1694,79.2,88,100,11.32,PH,2023-10-30 21:15:56
480,Cidade Velha,14.9167,-23.6167,81.07,69,75,9.22,CV,2023-10-30 21:15:56
481,Colonia,50.9333,6.95,56.59,91,20,9.22,DE,2023-10-30 21:11:49
482,Taoudenni,22.6783,-3.9836,91.65,9,52,5.93,ML,2023-10-30 21:14:15
483,Nagqu,31.5,92.0,20.55,90,100,1.48,CN,2023-10-30 21:11:49
484,Gonabad,34.3529,58.6837,65.3,33,93,4.85,IR,2023-10-30 21:15:57
485,Santa Marta De Ortigueira,43.6833,-7.85,59.25,75,84,5.01,ES,2023-10-30 21:15:57
486,Nea Alikarnassos,35.3333,25.1667,67.68,85,40,3.44,GR,2023-10-30 21:15:57
487,San Antonio De Pale,-1.4014,5.6325,79.83,84,100,12.12,GQ,2023-10-30 21:13:50
488,Gaspe,48.8334,-64.4819,36.25,63,100,1.95,CA,2023-10-30 21:11:23
489,Balqash,46.8481,74.995,53.42,83,100,6.55,KZ,2023-10-30 21:15:58
490,Bilara,26.1792,73.7056,77.02,32,60,5.03,IN,2023-10-30 21:15:58
491,Pathein,16.7833,94.7333,75.07,94,89,5.46,MM,2023-10-30 21:15:58
492,Tselinnoye,53.0833,85.6667,39.97,100,100,12.95,RU,2023-10-30 21:15:58
493,Leava,-14.3,-178.1667,81.34,81,5,10.56,WF,2023-10-30 21:11:25
494,Cruzeiro Do Sul,-29.5128,-51.9853,75.07,99,100,5.79,BR,2023-10-30 21:15:58
495,Dadhar,29.4753,67.6514,78.57,29,3,1.1,PK,2023-10-30 21:15:59
496,Port Alfred,-33.5906,26.891,57.18,94,70,3.0,ZA,2023-10-30 21:15:59
497,Malkara,40.89,26.9011,60.53,78,0,4.52,TR,2023-10-30 21:15:59
498,Bathsheba,13.2167,-59.5167,84.81,79,20,14.97,BB,2023-10-30 21:15:59
499,Niamey,13.5137,2.1098,89.89,15,6,5.75,NE,2023-10-30 21:15:59
500,Nelson Bay,-32.7167,152.15,75.09,48,70,4.0,AU,2023-10-30 21:16:00
501,Tadine,-21.55,167.8833,70.48,56,32,7.43,NC,2023-10-30 21:16:00
502,Hobyo,5.3505,48.5268,78.84,81,100,7.27,SO,2023-10-30 21:16:00
503,Chokwe,-24.5333,32.9833,61.39,71,100,9.51,MZ,2023-10-30 21:16:00
504,Maputo,-25.9653,32.5892,56.88,88,100,8.05,MZ,2023-10-30 21:16:00
505,Nova Vicosa,-17.8919,-39.3719,76.87,73,60,14.29,BR,2023-10-30 21:16:00
506,Valdivia,-39.8142,-73.2459,52.05,55,27,6.69,CL,2023-10-30 21:12:17
507,Badiyah,22.45,58.8,74.46,71,10,3.38,OM,2023-10-30 21:14:44
508,Mu'Minobod,38.1085,70.0285,56.03,38,85,5.06,TJ,2023-10-30 21:16:01
509,Lycksele,64.5954,18.6735,17.47,93,100,5.75,SE,2023-10-30 21:16:01
510,Kertih,4.5141,103.4483,77.02,94,100,0.0,MY,2023-10-30 21:16:02
511,Baruun-Urt,46.6806,113.2792,20.21,90,19,6.44,MN,2023-10-30 21:13:22
512,Ringkobing,56.0901,8.244,48.02,78,100,18.9,DK,2023-10-30 21:15:27
513,Big Spring,32.2504,-101.4787,42.24,50,53,13.8,US,2023-10-30 21:16:02
514,Floro,61.5996,5.0328,41.97,51,0,3.44,NO,2023-10-30 21:16:02
515,Mucumpiz,8.4167,-71.1333,62.85,87,89,2.19,VE,2023-10-30 21:16:03
516,Huangpi,30.8845,114.3779,60.91,94,11,2.24,CN,2023-10-30 21:16:03
517,Morgan City,29.6994,-91.2068,60.8,77,100,14.97,US,2023-10-30 21:16:04
518,Martil,35.6166,-5.2752,62.56,72,40,3.44,MA,2023-10-30 21:16:04
519,Bardai,11.65,7.2333,79.39,24,100,7.47,NG,2023-10-30 21:16:04
520,Sao Paulo De Olivenca,-3.3783,-68.8725,88.16,57,72,3.47,BR,2023-10-30 21:11:22
521,Ekenas,59.9736,23.4339,38.89,84,96,10.42,FI,2023-10-30 21:16:04
522,Portland,45.5234,-122.6762,62.31,41,20,17.27,US,2023-10-30 21:12:55
523,Cova Figueira,14.8905,-24.2934,74.59,70,73,4.83,CV,2023-10-30 21:16:05
524,Mahina,-17.5065,-149.489,85.77,70,40,5.75,PF,2023-10-30 21:12:58
525,Escanaba,45.7453,-87.0646,39.25,35,0,9.22,US,2023-10-30 21:15:06
526,New Amsterdam,6.25,-57.5167,83.28,70,21,6.15,GY,2023-10-30 21:16:06
527,Zakynthos,37.7914,20.8953,66.63,66,0,3.94,GR,2023-10-30 21:16:06
528,Novokuybyshevsk,53.0959,49.9462,35.78,77,100,10.56,RU,2023-10-30 21:16:06
529,Mont-Joli,48.5839,-68.1921,31.5,93,100,4.61,CA,2023-10-30 21:16:08
530,La'Ie,21.6477,-157.9253,86.05,72,6,11.03,US,2023-10-30 21:13:12
531,Fisterra,42.9049,-9.2629,59.76,69,0,19.98,ES,2023-10-30 21:16:08
532,Malango,-2.9627,119.9001,66.4,91,71,1.23,ID,2023-10-30 21:16:09
533,Al Ghayzah,16.2079,52.176,77.88,76,100,4.9,YE,2023-10-30 21:16:09
534,Robore,-18.3333,-59.75,93.29,52,40,17.27,BO,2023-10-30 21:16:10
535,Terrace,54.5163,-128.6035,37.31,60,20,3.44,CA,2023-10-30 21:16:10
536,Pueblo,38.2545,-104.6091,51.44,46,0,4.61,US,2023-10-30 21:16:10
537,Wettringen,52.2094,7.319,55.02,63,100,7.43,DE,2023-10-30 21:16:12
538,Majene,-3.5403,118.9707,81.93,75,62,7.83,ID,2023-10-30 21:16:12
539,Makar'Yev,57.8797,43.8069,28.35,96,100,6.31,RU,2023-10-30 21:16:12
540,Miquelon,47.0975,-56.3814,39.2,91,100,4.68,PM,2023-10-30 21:16:12
541,Jalai Nur,49.45,117.7,23.18,94,100,15.26,CN,2023-10-30 21:16:13
542,Nabire,-3.3667,135.4833,77.61,85,100,4.25,ID,2023-10-30 21:16:13
543,Ugoofaaru,5.6667,73.0,81.27,75,100,5.64,MV,2023-10-30 21:16:13
544,Flin Flon,54.7682,-101.865,21.04,58,100,11.5,CA,2023-10-30 21:16:14
545,Yangquan,37.8575,113.5633,58.17,39,0,6.85,CN,2023-10-30 21:16:14
546,Laghouat,33.8,2.8651,68.56,49,91,12.28,DZ,2023-10-30 21:16:14
547,Mossel Bay,-34.1831,22.146,55.8,83,0,11.56,ZA,2023-10-30 21:16:14
548,Nongstoin,25.5167,91.2667,56.7,91,100,4.56,IN,2023-10-30 21:16:14
549,Kamaishi,39.2667,141.8833,48.42,95,0,4.72,JP,2023-10-30 21:16:15
550,Ambovombe,-25.1667,46.0833,71.64,82,89,5.21,MG,2023-10-30 21:16:15
551,Conde,-7.2597,-34.9075,78.26,73,0,11.5,BR,2023-10-30 21:16:15
552,Lagoa,39.05,-27.9833,65.26,73,26,22.79,PT,2023-10-30 21:16:16
553,Khabarovsk,48.4808,135.0928,34.47,59,0,11.18,RU,2023-10-30 21:12:48
554,Qarauyl,48.9451,79.255,50.27,78,100,9.62,KZ,2023-10-30 21:16:16
555,Camacupa,-12.0167,17.4833,66.67,86,100,5.44,AO,2023-10-30 21:16:16
556,Williams Lake,52.1415,-122.1445,45.97,45,20,8.05,CA,2023-10-30 21:16:17
557,Villa Gesell,-37.2639,-56.973,58.05,47,88,16.64,AR,2023-10-30 21:16:17
558,Villajoyosa,38.5075,-0.2335,68.29,44,64,12.71,ES,2023-10-30 21:16:17
559,Aripuana,-9.1667,-60.6333,83.35,56,99,4.52,BR,2023-10-30 21:16:17
560,Fiambala,-27.6871,-67.6149,79.97,20,59,25.37,AR,2023-10-30 21:16:18
561,Malyye Derbety,47.9547,44.6808,49.51,69,66,7.34,RU,2023-10-30 21:16:18
562,Ouadda,8.0777,22.4007,72.66,65,18,2.84,CF,2023-10-30 21:16:18
563,Diboll,31.1871,-94.781,47.88,92,100,6.91,US,2023-10-30 21:16:18
564,Santiago De Cao,-7.9589,-79.2392,68.13,83,40,12.66,PE,2023-10-30 21:16:18
